,City,Cloudiness,Country,Date,Humidity,Lat,Lng,Max Temp,Wind Speed
0,albany,75,US,1604805894,93,42.6,-73.97,53.01,3.2
1,jamestown,1,US,1604805885,58,42.1,-79.24,53.6,4.7
2,busselton,97,AU,1604805897,62,-33.65,115.33,72.0,1.01
3,port elizabeth,0,ZA,1604805930,93,-33.92,25.57,57.2,4.7
4,upernavik,36,GL,1604805898,78,72.79,-56.15,1.18,7.96
5,dikson,100,RU,1604805883,91,73.51,80.55,-1.79,13.4
6,punta arenas,20,CL,1604805725,71,-53.15,-70.92,51.8,24.16
7,sandusky,0,US,1604806225,80,41.35,-83.13,53.01,8.59
8,yellowknife,90,CA,1604805906,92,62.46,-114.35,6.8,3.91
9,east london,0,ZA,1604805899,77,-33.02,27.91,66.2,14.99
10,luganville,75,VU,1604805772,74,-15.53,167.17,84.2,9.17
11,ust-koksa,0,RU,1604806226,72,50.27,85.61,39.2,1.88
12,vostok,96,RU,1604806141,93,46.49,135.88,28.38,4.36
13,ribeira grande,19,PT,1604805929,70,38.52,-28.7,61.18,15.41
14,hobart,20,AU,1604805701,47,-42.88,147.33,66.99,11.41
15,lebu,0,CL,1604805880,85,-37.62,-73.65,52.57,20.29
16,saint-philippe,0,RE,1604805891,57,-21.36,55.77,75.2,3.36
17,bengkulu,99,ID,1604805922,63,-3.8,102.27,84.7,3.51
18,hilo,90,US,1604805880,83,19.73,-155.09,75.2,4.7
19,odweyne,6,SO,1604806227,37,9.41,45.06,69.26,2.44
20,atuona,23,PF,1604805915,79,-9.8,-139.03,77.56,13.65
21,fairbanks,90,US,1604805669,85,64.84,-147.72,23.0,4.7
22,mar del plata,90,AR,1604805814,100,-38.0,-57.56,61.0,6.93
23,hermanus,85,ZA,1604805885,81,-34.42,19.23,59.0,4.0
24,redlands,90,US,1604805992,71,34.06,-117.18,53.01,5.82
25,mataura,0,NZ,1604805884,58,-46.19,168.86,54.0,11.99
26,ahipara,55,NZ,1604805785,80,-35.17,173.17,60.04,10.69
27,buta,99,CD,1604806228,98,2.79,24.73,68.88,1.05
28,mahebourg,75,MU,1604805893,88,-20.41,57.7,73.4,9.17
29,port alfred,0,ZA,1604805883,77,-33.59,26.89,64.18,8.7
30,ihosy,37,MG,1604806228,78,-22.4,46.12,70.57,6.58
31,kaitangata,0,NZ,1604805906,43,-46.28,169.85,55.99,8.99
32,thompson,90,CA,1604805671,85,55.74,-97.86,15.8,5.82
33,vardo,60,NO,1604805935,78,70.37,31.11,39.4,36.82
34,provideniya,0,RU,1604805905,93,64.38,-173.3,27.41,5.48
35,labytnangi,98,RU,1604806229,98,66.66,66.42,21.56,1.57
36,avarua,67,CK,1604805888,73,-21.21,-159.78,77.0,3.36
37,kaduqli,0,SD,1604806230,27,11.02,29.72,70.93,9.04
38,victoria,75,HK,1604805785,56,22.29,114.16,79.0,3.0
39,morgan city,90,US,1604806231,88,29.7,-91.21,69.8,8.05
40,bredasdorp,44,ZA,1604805901,82,-34.53,20.04,57.2,8.05
41,pulaski,1,US,1604806231,87,34.77,-92.3,62.01,5.44
42,carnarvon,41,AU,1604805906,61,-24.87,113.63,77.0,16.11
43,poronaysk,100,RU,1604806232,81,49.22,143.12,33.84,11.34
44,ushuaia,40,AR,1604805892,47,-54.8,-68.3,55.4,18.34
45,butaritari,66,KI,1604805881,69,3.07,172.79,81.28,8.5
46,egvekinot,98,RU,1604805943,98,66.32,-179.17,20.57,5.06
47,berlevag,98,NO,1604805948,74,70.86,29.09,39.34,35.16
48,muros,89,ES,1604805978,87,42.78,-9.06,62.01,20.0
49,qeshm,40,IR,1604806236,78,26.96,56.27,75.2,9.17
50,djougou,0,BJ,1604806236,73,9.71,1.67,69.8,4.7
51,puerto el triunfo,20,SV,1604806236,94,13.28,-88.55,77.0,1.12
52,new norfolk,0,AU,1604805890,39,-42.78,147.06,66.99,1.99
53,lompoc,1,US,1604805907,76,34.64,-120.46,51.8,10.49
54,cherskiy,99,RU,1604805909,94,68.75,161.3,4.19,6.2
55,kapaa,90,US,1604805890,88,22.08,-159.32,78.8,13.87
56,georgetown,20,MY,1604805714,74,5.41,100.34,86.0,4.7
57,nizhniy lomov,47,RU,1604806237,90,53.53,43.68,38.03,14.38
58,cape town,75,ZA,1604805882,93,-33.93,18.42,59.0,14.99
59,cidreira,36,BR,1604805925,85,-30.18,-50.21,67.73,15.39
60,ligayan,56,PH,1604806237,73,4.65,119.47,82.78,9.66
61,fare,98,PF,1604805786,74,-16.7,-151.02,80.08,10.8
62,ayan,99,RU,1604805908,86,56.45,138.17,11.68,18.21
63,nahrin,14,AF,1604806238,15,36.06,69.13,70.79,4.41
64,nakhon nayok,45,TH,1604806238,68,14.17,101.1,84.0,3.11
65,bengbu,0,CN,1604806238,25,32.94,117.36,67.26,7.47
66,marsaxlokk,20,MT,1604806081,93,35.84,14.54,63.0,2.24
67,arraial do cabo,93,BR,1604805892,81,-22.97,-42.03,72.1,8.77
68,sehithwa,80,BW,1604806239,38,-20.47,22.72,78.67,2.3
69,kodiak,90,US,1604805837,93,57.79,-152.41,46.4,13.87
70,kiunga,96,PG,1604806239,48,-6.12,141.29,92.43,3.33
71,qaanaaq,1,GL,1604805883,68,77.48,-69.36,-11.45,10.36
72,torbay,90,CA,1604805890,80,47.67,-52.73,36.0,14.99
73,rocha,1,UY,1604806113,96,-34.48,-54.33,55.26,2.98
74,kenora,90,CA,1604806240,100,49.82,-94.43,33.8,11.41
75,nome,75,US,1604806080,80,64.5,-165.41,33.8,3.58
76,honningsvag,100,NO,1604806240,87,70.98,25.97,38.59,39.39
77,kindu,99,CD,1604806241,98,-2.95,25.95,68.83,2.13
78,barrow,90,US,1604805883,92,71.29,-156.79,30.2,19.46
79,olafsvik,60,IS,1604806241,73,64.89,-23.71,39.42,17.36
80,salalah,0,OM,1604805892,53,17.02,54.09,73.4,5.82
81,hameenlinna,0,FI,1604806122,80,61.0,24.46,37.0,2.24
82,kavaratti,40,IN,1604805910,83,10.57,72.64,84.2,4.7
83,touros,75,BR,1604806053,78,-5.2,-35.46,80.6,9.17
84,vaini,20,TO,1604805898,74,-21.2,-175.2,80.6,8.05
85,maralal,60,KE,1604806242,91,1.1,36.7,59.27,5.03
86,san andres,20,CO,1604806242,88,12.58,-81.7,78.8,2.24
87,jalu,0,LY,1604805975,87,29.03,21.55,59.47,9.01
88,tasiilaq,95,GL,1604805880,74,65.61,-37.64,30.2,9.01
89,makakilo city,1,US,1604805897,58,21.35,-158.09,84.2,8.05
90,porto novo,100,BJ,1604806246,86,6.5,2.6,77.86,5.32
91,san ramon,20,US,1604806003,71,37.78,-121.98,52.0,6.93
92,severo-kurilsk,20,RU,1604805901,77,50.68,156.12,36.77,5.99
93,la rochelle,90,FR,1604806246,100,46.17,-1.15,55.4,5.82
94,port hardy,20,CA,1604805919,60,50.7,-127.42,44.6,14.99
95,namibe,100,AO,1604805885,70,-15.2,12.15,68.63,5.06
96,hamina,0,FI,1604806247,69,60.57,27.2,39.2,8.05
97,bambous virieux,75,MU,1604805909,88,-20.34,57.76,73.4,9.17
98,veraval,0,IN,1604806247,37,20.9,70.37,82.85,10.87
99,san cristobal,93,VE,1604805953,91,7.77,-72.22,66.81,0.49
100,penha,40,BR,1604806248,88,-26.77,-48.65,68.0,3.36
101,tuatapere,8,NZ,1604805933,58,-46.13,167.68,54.0,11.99
102,salym,100,RU,1604805997,98,60.06,71.48,34.12,4.7
103,toora-khem,0,RU,1604806248,87,52.47,96.11,33.12,2.57
104,bathsheba,40,BB,1604806248,88,13.22,-59.52,80.6,19.46
105,laguna,1,US,1604805905,58,38.42,-121.42,55.0,9.17
106,sao filipe,82,CV,1604805941,77,14.9,-24.5,79.0,7.81
107,san juan del sur,56,NI,1604806249,89,11.25,-85.87,76.87,10.56
108,baghdad,0,IQ,1604806249,63,33.34,44.4,62.6,6.93
109,bluff,35,NZ,1604805881,58,-46.6,168.33,54.0,11.99
110,rikitea,100,PF,1604805886,74,-23.12,-134.97,71.74,17.85
111,horsham,98,GB,1604806250,100,51.06,-0.33,51.01,3.36
112,katsuura,75,JP,1604805907,77,35.13,140.3,71.01,6.93
113,lewistown,1,US,1604806250,87,40.6,-77.57,50.0,2.08
114,leningradskiy,100,RU,1604805934,95,69.38,178.42,18.07,8.46
115,los llanos de aridane,0,ES,1604806250,63,28.66,-17.92,66.2,6.93
116,orange cove,90,US,1604806054,93,36.62,-119.31,48.2,3.36
117,mount gambier,0,AU,1604805914,46,-37.83,140.77,69.8,6.93
118,castro,0,BR,1604805888,65,-24.79,-50.01,58.64,4.45
119,presidencia roque saenz pena,71,AR,1604806251,69,-26.79,-60.44,69.03,7.76
120,puerto ayora,18,EC,1604805898,83,-0.74,-90.35,68.0,5.01
121,saint george,20,US,1604805897,81,37.1,-113.58,44.01,5.82
122,arki,0,IN,1604806252,26,31.15,76.97,66.79,2.04
123,alofi,29,NU,1604805969,69,-19.06,-169.92,80.6,14.99
124,sobolevo,100,RU,1604805974,88,54.43,31.9,49.17,13.94
125,sawai madhopur,0,IN,1604806252,23,25.98,76.37,76.03,2.62
126,warrnambool,0,AU,1604806118,66,-38.38,142.48,66.99,1.01
127,wote,9,KE,1604806252,82,-1.78,37.63,64.92,1.48
128,camacha,20,PT,1604805943,77,33.08,-16.33,66.2,4.7
129,birao,67,CF,1604806098,40,10.28,22.79,72.34,4.25
130,kintampo,100,GH,1604806253,83,8.06,-1.73,72.93,3.33
131,paamiut,84,GL,1604805917,88,61.99,-49.67,26.76,30.6
132,touho,11,NC,1604806256,68,-20.78,165.23,78.44,9.13
133,praia,0,CV,1604805929,83,14.92,-23.51,77.0,12.75
134,talnakh,75,RU,1604805881,85,69.49,88.4,19.4,20.13
135,buraydah,40,SA,1604806257,100,26.33,43.98,62.6,9.17
136,nikolskoye,75,RU,1604805916,81,59.7,30.79,46.4,13.42
137,gat,47,IL,1604805903,79,31.61,34.76,64.99,2.62
138,nova odesa,3,UA,1604806257,94,47.31,31.79,42.37,2.98
139,ust-maya,100,RU,1604806258,90,60.42,134.53,0.03,5.57
140,haines junction,100,CA,1604806258,83,60.75,-137.51,-9.4,1.12
141,atherton,100,GB,1604806258,79,53.52,-2.49,50.0,1.01
142,chokurdakh,100,RU,1604805926,95,70.63,147.92,2.19,3.33
143,manokwari,93,ID,1604806258,73,-0.87,134.08,84.33,9.37
144,maneadero,53,MX,1604806259,48,31.72,-116.57,57.0,5.99
145,axim,100,GH,1604806108,87,4.87,-2.24,78.39,7.49
146,krasnoselkup,100,RU,1604806259,98,65.7,82.47,33.78,15.57
147,esperance,1,AU,1604805966,53,-33.87,121.9,77.0,8.05
148,sisimiut,68,GL,1604805968,83,66.94,-53.67,14.04,9.48
149,mehamn,92,NO,1604806260,77,71.04,27.85,38.01,31.9
150,lorengau,100,PG,1604805940,60,-2.02,147.27,85.17,5.88
151,pingliang,80,CN,1604806260,36,35.54,106.69,55.22,6.26
152,omboue,100,GA,1604806260,89,-1.57,9.26,76.48,6.44
153,te anau,1,NZ,1604805919,40,-45.42,167.72,55.51,7.92
154,toppenish,90,US,1604806261,52,46.38,-120.31,44.6,4.7
155,aklavik,97,CA,1604805932,79,68.22,-135.01,26.6,4.7
156,ust-kuyga,100,RU,1604805970,86,70.02,135.6,-20.81,5.28
157,rassvet,0,RU,1604806261,94,46.83,40.75,39.2,4.47
158,katangli,96,RU,1604806261,85,51.71,143.23,28.47,11.14
159,pacific grove,90,US,1604806059,71,36.62,-121.92,54.0,9.17
160,bac lieu,43,VN,1604805893,75,9.29,105.72,83.57,9.31
161,ponta do sol,20,PT,1604805890,77,32.67,-17.1,63.0,3.36
162,belyy yar,20,RU,1604806262,100,53.6,91.39,28.4,4.21
163,gamba,99,GA,1604806262,90,-2.65,10.0,76.12,6.11
164,yar-sale,94,RU,1604805980,99,66.83,70.83,25.34,1.23
165,coquimbo,99,CL,1604806263,87,-29.95,-71.34,55.4,3.36
166,bubaque,0,GW,1604806263,79,11.28,-15.83,84.65,10.38
167,kenai,90,US,1604806263,92,60.55,-151.26,28.0,18.34
168,anloga,20,GH,1604805908,78,5.79,0.9,77.0,2.24
169,mananjary,12,MG,1604806264,76,-21.22,48.33,75.04,4.32
170,saint andrews,20,US,1604806264,73,34.05,-81.13,69.8,8.05
171,chimbote,34,PE,1604806264,87,-9.09,-78.58,60.21,5.35
172,ponferrada,78,ES,1604806260,80,42.55,-6.6,55.99,3.85
173,atiquizaya,100,SV,1604806264,100,13.98,-89.75,70.0,0.87
174,tromso,90,NO,1604806264,89,69.65,18.96,32.0,31.09
175,pemba,75,MZ,1604806264,88,-12.97,40.52,75.2,6.93
176,mezen,100,RU,1604806264,96,65.85,44.24,34.56,9.33
177,norman wells,75,CA,1604805881,92,65.28,-126.83,28.4,5.82
178,grindavik,40,IS,1604805906,65,63.84,-22.43,39.2,13.87
179,charters towers,35,AU,1604806017,34,-20.1,146.27,91.38,19.75
180,evanston,1,US,1604806238,59,42.04,-87.69,64.0,9.17
181,mount isa,13,AU,1604805883,7,-20.73,139.5,96.8,8.05
182,saskylakh,6,RU,1604805892,89,71.92,114.08,-9.36,8.43
183,la ronge,100,CA,1604805931,85,55.1,-105.28,19.4,11.41
184,kununurra,40,AU,1604805932,30,-15.77,128.73,96.8,8.05
185,canmore,100,CA,1604806269,62,51.08,-115.35,21.2,6.93
186,hua hin,40,TH,1604806145,83,12.57,99.96,78.8,5.82
187,sao felix do xingu,52,BR,1604805971,95,-6.64,-51.99,72.0,2.53
188,skjervoy,100,NO,1604806269,79,70.03,20.97,37.2,34.02
189,umkomaas,20,ZA,1604806269,89,-30.21,30.8,69.01,4.0
190,bethel,1,US,1604805885,87,41.37,-73.41,55.0,3.53
191,palauig,97,PH,1604806270,64,15.44,119.9,87.1,2.13
192,olinda,40,BR,1604806270,78,-8.01,-34.86,80.6,13.87
193,urusha,100,RU,1604806270,78,54.05,122.9,13.96,10.54
194,tiarei,75,PF,1604806270,78,-17.53,-149.33,80.6,10.29
195,cassilandia,2,BR,1604806270,50,-19.11,-51.73,77.09,2.17
196,rizhao,0,CN,1604806270,36,35.43,119.46,57.9,13.15
197,surt,58,LY,1604806271,72,31.21,16.59,68.43,17.81
198,faanui,97,PF,1604805914,76,-16.48,-151.75,79.34,11.27
199,mashivka,8,UA,1604806271,96,49.44,34.87,43.45,9.31
200,tirumullaivasal,99,IN,1604806271,76,11.23,79.83,83.44,18.88
201,devin,75,BG,1604806271,93,41.74,24.4,46.0,2.06
202,margate,59,GB,1604805880,88,51.38,1.39,54.0,3.0
203,honiara,40,SB,1604806272,70,-9.43,159.95,89.6,6.93
204,sohagpur,0,IN,1604806272,34,22.7,78.2,73.65,4.56
205,mayabon,40,PH,1604806272,66,9.1,123.17,87.8,11.41
206,najran,0,SA,1604806155,36,17.49,44.13,60.8,4.7
207,kinel,95,RU,1604806272,100,53.23,50.65,34.18,9.15
208,seymchan,100,RU,1604806272,90,62.88,152.43,0.37,6.6
209,jabinyanah,20,TN,1604806273,87,35.03,10.91,59.0,3.36
210,khatanga,0,RU,1604805925,87,71.97,102.5,-3.66,12.88
211,kaeo,13,NZ,1604805983,69,-35.1,173.78,70.0,15.99
212,chuy,0,UY,1604805930,94,-33.7,-53.46,59.0,5.53
213,esmeraldas,0,BR,1604806274,73,-19.76,-44.31,73.4,4.7
214,rio claro,0,BR,1604806274,52,-22.41,-47.56,69.8,6.93
215,ruidoso,40,US,1604806159,33,33.33,-105.67,57.2,13.87
216,ishigaki,40,JP,1604805922,83,24.34,124.16,82.4,24.16
217,hayden,75,US,1604806274,86,47.77,-116.79,37.0,3.36
218,boyabat,1,TR,1604806274,80,41.47,34.77,43.32,0.89
219,aksarka,98,RU,1604806274,99,66.56,67.8,24.98,4.79
220,gizo,90,SB,1604805970,70,-8.1,156.84,84.4,4.47
221,padang,100,ID,1604806054,80,-0.95,100.35,79.03,5.93
222,north bend,75,US,1604805961,76,43.41,-124.22,50.0,13.87
223,khani,75,GE,1604806275,93,41.96,42.96,48.2,10.29
224,kahului,40,US,1604805810,62,20.89,-156.47,84.2,20.8
225,husavik,90,IS,1604805945,56,66.04,-17.34,42.8,12.75
226,provost,100,CA,1604806278,92,52.35,-110.27,24.8,16.11
227,keita,0,NE,1604806278,28,14.76,5.77,69.8,4.7
228,nosy varika,35,MG,1604806278,73,-20.58,48.53,75.2,3.22
229,grand gaube,24,MU,1604805953,85,-20.01,57.66,71.01,8.99
230,hithadhoo,19,MV,1604805881,70,-0.6,73.08,84.18,7.27
231,auray,90,FR,1604806279,100,47.67,-2.99,55.99,4.7
232,bilma,0,NE,1604806279,46,18.69,12.92,64.11,12.03
233,san patricio,20,US,1604805953,94,28.02,-97.52,72.0,10.29
234,kavieng,36,PG,1604805786,65,-2.57,150.8,85.01,3.27
235,houma,40,US,1604806241,94,29.6,-90.72,68.0,9.17
236,saint-pierre,0,RE,1604805959,57,-21.34,55.48,75.2,3.36
237,velingara,0,SN,1604806279,46,13.15,-14.12,77.11,3.76
238,isangel,75,VU,1604805960,79,-19.55,169.27,84.2,9.17
239,morehead,90,US,1604806280,72,37.27,-87.18,68.0,6.98
240,male,25,MV,1604806280,69,4.17,73.51,83.73,5.37
241,nelson bay,90,AU,1604806280,59,-32.72,152.15,69.01,16.11
242,northam,100,GB,1604805915,97,51.03,-4.22,55.99,5.01
243,moses lake,90,US,1604805996,28,47.13,-119.28,42.8,25.28
244,longyearbyen,40,SJ,1604805823,80,78.22,15.64,30.2,5.82
245,meulaboh,71,ID,1604805976,68,4.14,96.13,84.69,0.96
246,tuzha,100,RU,1604806281,88,57.61,47.94,40.5,15.59
247,dalvik,90,IS,1604806281,56,65.97,-18.53,42.8,12.75
248,altay,70,CN,1604806281,51,47.87,88.12,46.15,2.35
249,darlawn,20,IN,1604806282,69,24.02,92.9,77.0,3.36
250,airai,69,TL,1604805897,35,-8.93,125.41,82.0,6.31
251,menongue,80,AO,1604806282,61,-14.66,17.69,65.5,1.52
252,patacamaya,100,BO,1604806282,76,-17.23,-67.92,43.32,7.74
253,port hedland,0,AU,1604806283,37,-20.32,118.57,96.8,13.87
254,inhambane,0,MZ,1604805933,86,-23.86,35.38,77.11,10.89
255,kruisfontein,0,ZA,1604805894,93,-34.0,24.73,54.0,3.0
256,flinders,90,AU,1604805971,59,-34.58,150.86,62.6,9.17
257,iqaluit,75,CA,1604805911,71,63.75,-68.51,6.8,4.7
258,pangnirtung,93,CA,1604805882,83,66.15,-65.71,4.32,3.31
259,poyarkovo,97,RU,1604806284,91,49.6,128.68,24.28,15.39
260,rawson,89,AR,1604805730,60,-43.3,-65.1,62.04,16.75
261,manta,90,EC,1604806284,83,-0.95,-80.73,73.4,11.41
262,baillif,86,GP,1604806284,88,16.02,-61.75,78.8,3.36
263,praia da vitoria,75,PT,1604805975,87,38.73,-27.07,57.2,11.48
264,zyryanka,94,RU,1604806284,92,65.75,150.85,-1.23,4.65
265,jimma,52,ET,1604806285,86,7.67,36.83,60.98,0.78
266,talara,52,PE,1604805970,84,-4.58,-81.27,64.17,15.93
267,tezu,0,IN,1604806285,32,27.92,96.17,79.88,2.73
268,aanekoski,0,FI,1604806288,86,62.69,25.82,33.01,8.05
269,rio de janeiro,90,BR,1604806091,78,-22.9,-43.21,71.6,4.29
270,itacare,40,BR,1604806288,94,-14.28,-39.0,78.8,4.7
271,chifeng,0,CN,1604806288,46,42.27,118.96,39.83,16.11
272,vestmannaeyjar,100,IS,1604805966,65,63.44,-20.27,43.95,16.58
273,juba,92,SS,1604806260,89,4.85,31.58,72.64,3.31
274,llangefni,99,GB,1604806289,93,53.26,-4.31,57.2,2.24
275,goya,0,AR,1604806264,76,-29.14,-59.26,66.9,7.02
276,sitka,1,US,1604806289,80,57.05,-135.33,33.8,6.93
277,dharmadam,20,IN,1604806289,83,11.78,75.43,84.2,4.7
278,sheridan,1,US,1604806085,70,44.83,-106.92,57.0,4.7
279,nizhniy kuranakh,100,RU,1604806290,90,58.84,125.49,4.12,6.55
280,saldanha,64,ZA,1604805900,87,-33.01,17.94,59.0,8.05
281,pontes e lacerda,51,BR,1604806290,66,-15.23,-59.34,76.41,3.09
282,lavrentiya,10,RU,1604805884,95,65.58,-171.0,27.97,5.12
283,yurla,100,RU,1604806290,98,59.33,54.32,31.62,10.83
284,saltpond,100,GH,1604806291,84,5.21,-1.06,78.51,9.75
285,saint-joseph,0,RE,1604806291,57,-21.37,55.62,75.2,3.36
286,luderitz,0,NA,1604805902,87,-26.65,15.16,60.51,4.54
287,sorland,98,NO,1604805727,67,67.67,12.69,41.4,14.97
288,soderhamn,69,SE,1604806291,88,61.3,17.06,42.01,1.01
289,kristiansund,99,NO,1604806291,86,63.11,7.73,41.0,8.05
290,faya,0,SA,1604805907,54,18.39,42.45,57.2,0.54
291,bang saphan,75,TH,1604806291,88,11.21,99.51,82.4,5.82
292,cayenne,0,GF,1604806035,100,4.93,-52.33,77.0,2.24
293,burnie,0,AU,1604806292,61,-41.07,145.92,61.0,8.01
294,kuusamo,0,FI,1604806292,68,65.97,29.18,30.2,17.22
295,argayash,40,RU,1604806292,86,55.49,60.88,37.4,8.95
296,ambulu,9,ID,1604806292,61,-8.35,113.61,86.14,5.73
297,yaan,52,NG,1604806292,85,7.38,8.57,72.25,3.36
298,pevek,99,RU,1604805903,97,69.7,170.31,13.64,2.55
299,botou,0,CN,1604806293,30,38.07,116.57,56.55,2.84
300,naze,75,JP,1604806133,73,28.37,129.48,75.2,12.75
301,tuktoyaktuk,75,CA,1604805889,92,69.45,-133.04,23.0,16.11
302,luorong,0,CN,1604806293,41,24.41,109.61,75.92,14.83
303,key west,90,US,1604806293,94,24.56,-81.78,78.01,13.87
304,samarai,60,PG,1604805786,79,-10.62,150.67,82.26,12.17
305,palmer,40,US,1604805930,87,42.16,-72.33,54.0,2.48
306,pareora,88,NZ,1604806294,58,-44.49,171.21,52.0,7.0
307,kirkenaer,90,NO,1604806294,100,60.46,12.06,37.4,4.7
308,lufilufi,75,WS,1604806294,83,-13.87,-171.6,82.4,8.05
309,muyezerskiy,0,RU,1604806295,90,63.93,31.65,32.2,13.58
310,tura,0,IN,1604805950,64,25.52,90.22,75.63,1.68
311,clyde river,75,CA,1604805700,54,70.47,-68.59,1.4,9.17
312,totma,75,RU,1604806295,73,59.97,42.76,39.51,12.59
313,huilong,0,CN,1604806295,41,31.81,121.66,68.0,15.03
314,shimonoseki,20,JP,1604806296,37,33.95,130.95,68.0,13.87
315,san juan,13,AR,1604806296,28,-31.54,-68.54,77.67,16.35
316,geraldton,75,AU,1604805900,57,-28.77,114.6,75.2,8.05
317,pangoa,0,PE,1604806300,93,-12.12,-73.0,67.08,4.16
318,miri,40,MY,1604806300,74,4.41,114.01,86.0,6.93
319,hami,59,CN,1604805892,39,42.8,93.45,49.24,6.51
320,sarkand,59,KZ,1604806300,23,45.41,79.92,61.39,5.37
321,guerrero negro,0,MX,1604806300,69,27.98,-114.06,62.91,13.47
322,elizabeth city,1,US,1604806053,100,36.29,-76.25,60.8,3.29
323,tuytepa,100,UZ,1604806301,25,41.03,69.36,60.8,2.24
324,dasoguz,90,TM,1604806301,87,41.84,59.97,48.2,6.93
325,cocobeach,75,GA,1604806301,94,1.0,9.58,75.2,4.7
326,lashio,2,MM,1604806301,54,22.93,97.75,79.52,1.32
327,taltal,72,CL,1604806301,79,-25.4,-70.48,56.71,2.08
328,kyzyl-suu,40,KG,1604806302,45,42.34,78.01,47.25,3.69
329,pirajui,0,BR,1604806302,40,-22.0,-49.46,71.01,5.01
330,ilulissat,4,GL,1604805930,43,69.22,-51.1,14.0,11.41
331,poum,6,NC,1604806085,79,-20.23,164.02,76.41,22.03
332,port shepstone,16,ZA,1604805942,77,-30.74,30.45,69.3,3.76
333,jambi,100,ID,1604806302,82,-1.6,103.62,84.13,1.14
334,am timan,57,TD,1604806302,35,11.03,20.28,73.63,3.87
335,carballo,0,ES,1604806303,82,43.21,-8.69,59.0,10.29
336,petropavlovsk-kamchatskiy,2,RU,1604806303,47,53.05,158.65,37.4,8.95
337,sharjah,0,AE,1604805909,73,25.36,55.4,78.8,3.36
338,lata,92,PT,1604806303,87,40.16,-8.33,62.01,3.0
339,campina verde,27,BR,1604806303,46,-19.54,-49.49,77.86,5.64
340,shimoda,75,JP,1604806304,64,34.67,138.95,69.8,3.36
341,ancud,18,CL,1604805882,66,-41.87,-73.82,53.01,17.22
342,yulara,32,AU,1604805888,8,-25.24,130.99,95.0,9.17
343,hofn,67,IS,1604805905,82,64.25,-15.21,44.04,15.32
344,kumluca,0,TR,1604806304,34,36.37,30.29,64.71,7.4
345,viedma,99,AR,1604805887,87,-40.81,-63.0,55.0,16.13
346,orocue,100,CO,1604806304,87,4.79,-71.34,77.63,1.88
347,terrace bay,100,CA,1604806304,87,48.78,-87.1,42.8,8.05
348,broome,1,US,1604805936,54,42.25,-75.83,57.2,6.93
349,coihaique,0,CL,1604806305,70,-45.58,-72.07,48.2,3.36
350,ulaanbaatar,0,MN,1604806305,62,47.91,106.88,19.4,2.24
351,dunedin,2,NZ,1604805891,49,-45.87,170.5,55.0,14.0
352,port blair,2,IN,1604806305,73,11.67,92.75,84.63,12.24
353,aranos,0,NA,1604805972,36,-24.13,19.12,66.51,8.21
354,guanica,99,PR,1604806306,82,17.97,-66.91,77.0,10.13
355,teahupoo,75,PF,1604806306,78,-17.83,-149.27,80.6,10.29
356,tual,100,ID,1604805934,73,-5.67,132.75,82.44,12.82
357,pangai,20,TO,1604806307,65,-19.8,-174.35,78.8,10.29
358,pontian kecil,40,MY,1604806307,79,1.48,103.39,84.2,3.36
359,rundu,70,NA,1604806307,47,-17.93,19.77,75.02,2.86
360,okhotsk,35,RU,1604805883,90,59.38,143.3,13.95,15.73
361,maxixe,0,MZ,1604805901,86,-23.86,35.35,76.59,10.11
362,mana,3,GF,1604806308,82,5.66,-53.78,77.88,13.53
363,nicoya,75,CR,1604806308,94,10.15,-85.45,75.2,4.7
364,oksfjord,100,NO,1604806311,80,70.24,22.35,36.0,24.16
365,la orilla,43,MX,1604806312,86,17.98,-102.23,76.23,2.46
366,chumikan,37,RU,1604806312,83,54.72,135.31,15.3,14.16
367,hervey bay,40,AU,1604805960,53,-25.3,152.85,77.0,23.04
368,hasaki,75,JP,1604805930,68,35.73,140.83,72.0,8.05
369,koumac,33,NC,1604805962,70,-20.57,164.28,77.79,16.08
370,turukhansk,100,RU,1604806312,99,65.82,87.98,32.16,14.54
371,auki,25,SB,1604806312,67,-8.77,160.7,85.73,3.87
372,maloyaroslavets,75,RU,1604806312,87,55.01,36.47,46.4,11.18
373,fukue,20,JP,1604806312,45,32.69,128.84,66.2,13.87
374,mantua,0,IT,1604806052,98,45.17,10.78,48.0,3.0
375,suba,67,PH,1604806313,73,10.84,121.01,79.61,2.44
376,culebra,75,PR,1604806313,74,18.3,-65.3,82.4,9.17
377,kualakapuas,89,ID,1604806313,55,-3.01,114.39,91.58,2.46
378,asau,0,RO,1604805961,87,46.43,26.4,42.01,4.65
379,oussouye,0,SN,1604806313,67,12.48,-16.55,80.15,9.26
380,necochea,0,AR,1604805669,93,-38.55,-58.74,55.0,5.01
381,illapel,11,CL,1604806314,71,-31.63,-71.17,57.09,1.86
382,barcelos,20,PT,1604806314,87,41.54,-8.62,60.8,21.92
383,chawinda,0,PK,1604806314,71,32.35,74.71,57.2,4.05
384,haverfordwest,100,GB,1604806314,93,51.8,-4.97,54.0,9.17
385,talcahuano,0,CL,1604805960,81,-36.72,-73.12,53.6,8.05
386,agadez,29,NE,1604805926,44,19.75,10.25,63.03,13.47
387,pisco,90,PE,1604805889,88,-13.7,-76.22,62.6,13.87
388,lagoa,28,PT,1604805927,72,39.05,-27.98,61.09,15.17
389,salinas,90,US,1604806315,66,36.68,-121.66,55.4,8.05
390,batagay,53,RU,1604806315,84,67.63,134.63,-23.06,1.5
391,celestun,33,MX,1604806315,86,20.87,-90.4,77.77,9.71
392,ratnagiri,0,IN,1604806315,63,16.98,73.3,82.15,8.48
393,canutama,44,BR,1604805960,90,-6.53,-64.38,75.06,0.38
394,mirabad,0,AF,1604806315,19,30.44,61.84,70.47,4.7
395,kultuk,67,RU,1604806315,71,51.72,103.7,39.58,4.74
396,adrar,0,MR,1604806315,21,20.5,-10.07,79.29,8.19
397,macamic,90,CA,1604806316,100,48.75,-79.0,42.8,5.82
398,qaqortoq,100,GL,1604805953,74,60.72,-46.03,28.4,4.7
399,raga,0,SS,1604806316,45,8.46,25.68,70.23,1.7
400,taoudenni,16,ML,1604805911,18,22.68,-3.98,77.5,9.17
401,segou,0,ML,1604806316,19,13.43,-6.22,73.15,8.14
402,calais,40,FR,1604806317,98,50.92,1.83,54.0,3.0
403,vila,98,PT,1604806317,95,42.03,-8.16,54.0,7.0
404,buique,34,BR,1604806317,85,-8.62,-37.16,68.02,10.29
405,san carlos de bariloche,40,AR,1604806097,58,-41.15,-71.31,53.6,2.24
406,nuuk,98,GL,1604805669,73,64.18,-51.72,21.2,14.99
407,bourail,89,NC,1604806317,62,-21.57,165.48,77.5,11.5
408,rafraf,100,TN,1604806317,77,37.19,10.18,62.6,3.36
409,harper,50,LR,1604805900,86,4.38,-7.72,78.15,5.93
410,matay,0,EG,1604806321,70,28.42,30.78,58.12,4.63
411,millinocket,90,US,1604805787,66,45.66,-68.71,53.6,4.7
412,homer,90,US,1604805921,80,59.64,-151.55,42.01,17.22
413,kiama,90,AU,1604806321,59,-34.68,150.87,63.0,9.17
414,ucluelet,0,CA,1604805930,50,48.93,-125.55,39.99,1.99
415,richards bay,0,ZA,1604805924,88,-28.78,32.04,72.84,4.0
416,ginda,0,IN,1604806322,27,30.69,78.49,62.29,4.09
417,neepawa,90,CA,1604805953,86,50.23,-99.47,28.4,18.34
418,ponta delgada,20,PT,1604805883,71,37.73,-25.67,57.2,5.82
419,thinadhoo,42,MV,1604805667,70,0.53,72.93,84.27,7.36
420,pauini,20,BR,1604806098,76,-7.71,-66.98,76.51,2.44
421,port-gentil,100,GA,1604806322,86,-0.72,8.78,78.53,11.72
422,erzin,0,TR,1604805982,52,36.96,36.2,60.01,8.99
423,tatarsk,100,RU,1604806322,78,55.22,75.98,40.64,15.59
424,bonito,0,BR,1604806322,43,-21.12,-56.48,75.67,2.37
425,kirakira,63,SB,1604806323,77,-10.45,161.92,83.28,6.85
426,kuryk,94,KZ,1604806323,68,43.2,51.65,49.84,17.09
427,san rafael,2,AR,1604806323,39,-34.62,-68.33,71.26,8.5
428,langarud,90,IR,1604806323,100,37.2,50.15,60.8,6.93
429,sept-iles,2,CA,1604805700,68,50.2,-66.38,26.6,3.36
430,peniche,56,PT,1604806323,85,39.36,-9.38,64.0,15.01
431,lindi,81,TZ,1604806324,81,-10.0,39.72,78.37,3.04
432,waipawa,100,NZ,1604805935,81,-41.41,175.52,51.8,33.33
433,balkanabat,100,TM,1604806324,70,39.51,54.37,54.61,8.75
434,riverton,75,US,1604806283,93,40.52,-111.94,44.01,10.29
435,sangar,81,RU,1604805938,89,63.92,127.47,-10.19,5.3
436,llanes,48,ES,1604806324,64,43.42,-4.75,64.99,8.99
437,narsaq,100,GL,1604805977,74,60.92,-46.05,28.4,4.7
438,kieta,88,PG,1604806325,73,-6.22,155.63,82.92,2.06
439,bambanglipuro,81,ID,1604806325,64,-7.95,110.28,85.77,10.63
440,bilibino,100,RU,1604806074,91,68.05,166.44,1.15,1.86
441,yuanping,0,CN,1604806325,39,38.72,112.76,48.58,1.74
442,labuhan,35,ID,1604805983,59,-6.88,112.21,87.98,2.55
443,coahuayana,74,MX,1604806325,86,18.73,-103.68,75.18,2.06
444,krasnystaw,90,PL,1604806326,100,50.98,23.17,43.0,6.93
445,pasni,0,PK,1604805976,44,25.26,63.47,75.99,4.74
446,amarkantak,0,IN,1604806326,31,22.67,81.75,68.56,5.64
447,batangafo,100,CF,1604806326,70,7.3,18.28,70.54,3.38
448,iracoubo,0,GF,1604806326,82,5.48,-53.2,78.57,13.96
449,gunjur,5,GM,1604806327,74,13.2,-16.73,80.6,6.93
450,trairi,74,BR,1604806061,78,-3.28,-39.27,79.32,12.06
451,sur,0,OM,1604806327,56,22.57,59.53,79.9,2.44
452,rota,0,ES,1604806327,93,36.62,-6.36,57.99,5.82
453,yamoussoukro,75,CI,1604806327,94,6.82,-5.28,69.8,2.57
454,yueyang,0,CN,1604806328,37,29.33,113.09,70.61,10.89
455,visby,91,SE,1604806328,87,57.64,18.3,50.0,13.87
456,aktau,75,KZ,1604806328,87,43.65,51.2,44.6,8.95
457,denpasar,0,ID,1604806331,64,-8.65,115.22,84.33,6.62
458,bloomingdale,75,US,1604806331,69,27.89,-82.24,77.0,9.17
459,hobyo,32,SO,1604805940,79,5.35,48.53,79.27,10.58
460,sinnamary,5,GF,1604806332,83,5.38,-52.95,78.49,13.91
461,leninskoye,100,KZ,1604806332,25,41.76,69.39,60.8,2.24
462,aitape,58,PG,1604806063,73,-3.14,142.35,83.7,3.53
463,baykit,100,RU,1604805963,97,61.67,96.37,29.97,4.36
464,codrington,0,AU,1604805918,67,-38.27,141.97,63.05,10.65
465,fortuna,75,US,1604805952,93,40.6,-124.16,51.01,10.29
466,hamilton,1,US,1604805748,54,39.18,-84.53,60.01,4.7
467,atbasar,100,KZ,1604806333,72,51.8,68.33,41.56,20.51
468,odesskoye,100,RU,1604806333,82,54.21,72.97,44.6,18.25
469,nanortalik,100,GL,1604805935,97,60.14,-45.24,29.37,14.61
470,shitanjing,0,CN,1604806333,40,39.23,106.34,50.14,5.84
471,banyliv,0,UA,1604806333,80,48.37,25.35,42.93,1.39
472,aswan,89,EG,1604805926,49,24.09,32.91,65.44,5.08
473,pontianak,76,ID,1604806334,56,-0.03,109.33,91.18,1.97
474,saint anthony,1,US,1604806334,63,45.02,-93.22,64.99,19.46
475,sao luiz gonzaga,0,BR,1604806334,78,-28.41,-54.96,66.49,9.6
476,tiksi,69,RU,1604805880,92,71.69,128.87,-6.02,2.3
477,eureka,4,US,1604806120,46,40.8,-124.16,51.01,5.99
478,puerto colombia,20,CO,1604806335,94,10.99,-74.95,77.0,3.36
479,zabol,8,AF,1604806335,28,32.25,67.25,56.41,2.95
480,quang ngai,79,VN,1604806335,74,15.12,108.8,79.5,13.4
481,kathua,0,IN,1604806335,19,32.37,75.52,74.53,2.57
482,klaksvik,82,FO,1604805943,86,62.23,-6.59,41.0,6.93
483,mugur-aksy,1,RU,1604806336,89,50.35,90.5,29.89,5.7
484,elko,90,US,1604805970,80,41.0,-115.5,34.0,11.41
485,skerries,75,IE,1604806336,93,53.58,-6.11,53.6,9.17
486,boyolangu,74,ID,1604806336,64,-8.12,111.89,85.23,6.58
487,sterling,1,US,1604806268,81,39.01,-77.43,54.0,2.77
488,bratsk,90,RU,1604806336,100,56.13,101.61,35.6,8.95
489,maine-soroa,0,NE,1604806336,36,13.21,12.02,69.78,8.9
490,puerto madryn,100,AR,1604805949,61,-42.77,-65.04,61.27,19.69
491,waddan,1,LY,1604806337,93,29.16,16.14,55.56,7.49
492,clarence town,90,AU,1604806337,59,-32.58,151.78,69.01,16.11
493,portland,89,US,1604805854,87,45.52,-122.68,42.01,3.0
494,batemans bay,18,AU,1604806337,57,-35.72,150.18,64.0,1.99
495,polson,100,US,1604806075,40,47.69,-114.16,35.01,11.99
496,marawi,39,PH,1604806338,75,8.0,124.29,84.0,5.99
497,kayerkan,75,RU,1604805978,85,69.35,87.76,19.4,20.13
498,anamur,0,TR,1604806338,32,36.08,32.84,66.2,8.05
499,beisfjord,91,NO,1604806338,94,68.38,17.6,28.99,21.99
500,owando,90,CG,1604806339,99,-0.48,15.9,69.64,1.59
501,half moon bay,90,US,1604805974,76,37.46,-122.43,53.6,16.11
502,saint-louis,38,SN,1604806342,28,16.33,-15.0,86.25,11.45
503,kankon,0,IN,1604806342,62,15.02,74.02,84.2,10.29
504,karaton,75,ID,1604806342,62,-6.34,106.1,89.6,4.7
505,domoni,89,KM,1604806343,76,-12.26,44.53,80.22,6.11
506,cabo san lucas,5,MX,1604805774,83,22.89,-109.91,78.01,5.82
507,wattegama,20,LK,1604806343,100,6.8,81.48,78.8,4.7
508,nakhon si thammarat,75,TH,1604806343,84,8.25,100.0,86.0,4.7
509,itarema,70,BR,1604806343,79,-2.92,-39.92,78.85,14.83
510,tchibanga,99,GA,1604806343,99,-2.85,11.03,71.33,0.43
511,souillac,75,MU,1604805897,88,-20.52,57.52,73.4,9.17
512,drayton valley,100,CA,1604806344,88,53.22,-114.99,18.0,7.0
513,santo antonio do leverger,0,BR,1604806344,48,-15.87,-56.08,87.8,3.36
514,gweta,0,BW,1604806344,33,-20.18,25.23,82.42,8.23
515,deputatskiy,99,RU,1604805939,93,69.3,139.9,-3.89,3.62
516,balclutha,0,NZ,1604806344,44,-46.23,169.75,55.99,15.99
517,oxbow,18,CA,1604806345,92,49.23,-102.17,28.0,13.0
518,timmins,90,CA,1604806312,100,48.47,-81.33,41.0,3.36
519,costa rica,9,BR,1604806345,48,-23.42,-54.65,72.95,4.45
520,brewster,1,US,1604806345,87,41.4,-73.62,55.0,3.11
521,camana,23,PE,1604806345,80,-16.62,-72.71,62.76,7.0
522,caravelas,100,BR,1604806345,95,-17.71,-39.25,73.92,3.71
523,natori,75,JP,1604806345,30,38.17,140.88,68.0,23.04
524,chunhuhub,48,MX,1604806346,98,19.55,-88.68,72.32,3.85
525,zenzeli,0,RU,1604806346,77,45.92,47.05,41.38,12.8
526,vondrozo,56,MG,1604806346,90,-22.82,47.28,66.54,4.07
527,tutoia,0,BR,1604806346,76,-2.76,-42.27,80.67,15.32
528,shush,66,IR,1604806346,39,32.19,48.24,72.0,7.25
529,abnub,0,EG,1604806346,62,27.27,31.15,59.0,4.7
530,george,0,ZA,1604806347,87,-33.96,22.46,57.2,3.36
531,cap malheureux,20,MU,1604805884,85,-19.98,57.61,71.01,8.99
532,bud,1,US,1604806347,66,39.45,-86.18,55.99,3.36
533,weligama,16,LK,1604805917,75,5.97,80.42,82.78,3.42
534,tarko-sale,100,RU,1604805944,94,64.92,77.78,32.0,13.11
535,barquisimeto,99,VE,1604806347,100,10.07,-69.32,64.4,3.36
536,pospelikha,78,RU,1604806348,48,51.95,81.77,48.65,22.77
